Name,Country,continent,iso2,iso3,lat,lng,population,Cx(lon),Cy(lat),pop_2016_UN,pop_2023_UN
Antananarivo,Madagascar,Africa,MG,MDG,-18.9333,47.5167,2500317,47.5216452,-18.9155584,2757.316,3872.264
Abidjan,Cote d'Ivoire,Africa,CI,CIV,5.368,-3.949,4717347,-4.019603,5.3252258,4658.79,5686.35
Yaounde,Cameroon,Africa,CM,CMR,11.52,3.862,,11.5191364,3.8614776,3272.87,4509.287
Lusaka,Zambia,Africa,ZM,ZMB,-15.412,28.306,2426689,28.3054202,-15.4191874,2294.091,3181.25
Hanoi,Vietnam,Asia,VN,VNM,21.0283,105.8542,8246600,105.836033,21.030436,3854.847,5253.385
Monterrey,Mexico,Latin America,MX,MEX,25.6667,-100.3,5341171,-100.309994,25.668764,4554.656,5116.647
Buenos Aires,Argentina,Latin America,AR,ARG,-34.5997,-58.3819,16710000,-58.389111,-34.609504,14792.181,15490.415
Medan,Indonesia,Asia,ID,IDN,3.5894,98.6739,3632000,98.679187,3.591613,2237.869,2439.054
Cairo,Egypt,Africa,EG,EGY,30.13,31.324,22995802,31.244742,30.044036,19229.733,22183.201
Lagos,Nigeria,Africa,NG,NGA,6.668,3.316,11847635,3.369433,6.481701,12634.381,15945.912
Onitsha,Nigeria,Africa,NG,NGA,6.1667,6.7833,8530514,6.780007,6.144756,1164.996,1623.382
Johannesburg,South Africa,Africa,ZA,ZAF,-26.05,28.016,8314220,28.046713,-26.194566,5146.559,6198.016
Kinshasa,Congo (Kinshasa),Africa,CD,COD,-4.408,15.293,7270000,15.317455,-4.30072,12100.142,16315.534
Luanda,Angola,Africa,AO,AGO,-8.924,13.385,6979211,13.22341,-8.823057,7265.449,9292.336
Alexandria,Egypt,Africa,EG,EGY,31.125,29.797,6585102,29.900151,31.198284,4886.344,5588.477
Nairobi,Kenya,Africa,KE,KEN,-1.181,36.813,5877118,36.822033,-1.288026,4065.018,5325.16
Dar es Salaam,Tanzania,Africa,TZ,TZA,-6.807,39.177,5325879,39.287809,-6.820017,5409.174,7775.865
Kisumu,Kenya,Africa,KE,KEN,0.37,34.764,5040159,34.754064,-0.104713,315.809,392.258
Accra,Ghana,Africa,GH,GHA,5.657,-0.203,4452483,-0.20069,5.554804,2338.452,2660.072
Kano,Nigeria,Africa,NG,NGA,11.998,8.526,3888582,8.543478,12.004196,3660.579,4348.481
Algiers,Algeria,Africa,DZ,DZA,36.681,3.036,3886202.077,3.057377,36.775243,2625.638,2901.81
Kampala,Uganda,Africa,UG,UGA,0.291,32.546,3790894,32.580325,0.316183,2706.79,3846.102
Addis Ababa,Ethiopia,Africa,ET,ETH,8.884,38.773,3711329,38.763636,9.029667,4039.927,5460.591
Cape Town,South Africa,Africa,ZA,ZAF,-33.969,18.534,3661684,18.419088,-33.924324,4207.519,4890.28
Ibadan,Nigeria,Africa,NG,NGA,7.3964,3.9167,3088477,3.880976,7.388616,3230.579,3874.908
Dakar,Senegal,Africa,SN,SEN,14.738,-17.458,3067637,-17.432382,14.669518,2829.709,3429.536
Kumasi,Ghana,Africa,GH,GHA,6.683,-1.627,2802344,-1.609897,6.699519,2757.821,3768.239
Maputo,Mozambique,Africa,MZ,MOZ,-25.758,32.592,2607026,32.573368,-25.96887,1100.459,1162.793
Ouagadougou,Burkina Faso,Africa,BF,BFA,12.3686,-1.5275,2299007,-1.526417,12.3748,2305.593,3203.923
Harare,Zimbabwe,Africa,ZW,ZWE,-17.8292,31.0522,2272905,31.051422,-17.82943,1504.803,1578.128
Kigali,Rwanda,Africa,RW,RWA,-1.797,30.01,2202094,30.061746,-1.943627,985.604,1247.551
Conakry,Guinea,Africa,GN,GIN,9.5092,-13.7122,2186966,-13.682263,9.533251,1755.905,2110.937
Abuja,Nigeria,Africa,NG,NGA,9.083,7.466,1998816,7.500088,9.061038,2591.282,3839.646
Aba,Nigeria,Africa,NG,NGA,5.1167,7.3667,1687158,7.371733,5.112223,968.995,1188.803
Brazzaville,Congo (Brazzaville),Africa,CG,COG,-4.242,15.263,1588304,15.287819,-4.270639,2044.472,2637.733
Freetown,Sierra Leone,Africa,SL,SLE,8.4844,-13.2344,1456596,-13.242814,8.479694,1073.214,1309.168
Mombasa,Kenya,Africa,KE,KEN,-4.003,39.693,1257654,39.657254,-4.040853,1138.846,1440.396
Monrovia,Liberia,Africa,LR,LBR,6.3133,-10.8014,1190635,-10.807427,6.315606,1317.509,1678.02
Lilongwe,Malawi,Africa,MW,MWI,-13.982,33.761,1124965,33.778942,-13.975411,945.082,1276.316
Niamey,Niger,Africa,NE,NER,13.515,2.1175,1071481,2.115695,13.510497,1142.94,1437.233
Nouakchott,Mauritania,Africa,MR,MRT,18.0858,-15.9785,1060776,-15.96572,18.079224,1104.876,1491.958
Bujumbura,Burundi,Africa,BI,BDI,-3.472,29.414,1043847,29.365646,-3.392238,797.334,1206.767
Oran,Algeria,Africa,DZ,DZA,35.6969,-0.6331,1043423.893,-0.639587,35.698876,865.316,935.947
Bangui,Central African Republic,Africa,CF,CAF,4.398,18.55,945883,18.558051,4.385985,815.276,958.335
Libreville,Gabon,Africa,GA,GAB,0.3903,9.4542,885670,9.455381,0.424604,768.713,869.773
Constantine,Algeria,Africa,DZ,DZA,36.365,6.6147,703927.4417,6.639212,36.356914,423.52,417.768
Bobo-Dioulasso,Burkina Faso,Africa,BF,BFA,11.1833,-4.2833,667853,-4.305421,11.182196,794.345,1128.646
Windhoek,Namibia,Africa,NM,NAM,-22.57,17.0836,357256,17.084942,-22.570782,379.58,477.267
Jakarta,Indonesia,Asia,ID,IDN,-6.175,106.8275,33756000,106.827309,-6.175739,10286.636,11248.839
Delhi,India,Asia,IN,IND,28.61,77.23,32226000,77.229879,28.612882,26719.965,32941.309
Mumbai,India,Asia,IN,IND,19.0761,72.8775,24973000,72.819119,18.968949,19534.652,21296.517
Manila,Philippines,Asia,PH,PHL,14.5958,120.9772,24922000,120.983366,14.598171,13064.268,14667.089
Dhaka,Bangladesh,Asia,BD,BGD,23.7639,90.3889,18627000,90.425371,23.731382,18234.249,23209.616
Kolkata,India,Asia,IN,IND,22.5675,88.37,18502000,88.358792,22.572363,14508.143,15332.793
Bangkok,Thailand,Asia,TH,THA,13.7525,100.4942,18007000,100.502114,13.756876,9647.526,11069.982
Karachi,Pakistan,Asia,PK,PAK,24.86,67.01,15738000,67.002087,24.849182,14650.981,17236.23
Bangalore,India,Asia,IN,IND,12.9789,77.5917,15386000,77.594172,12.972095,10556.789,13607.8
Ho Chi Minh City,Vietnam,Asia,VN,VNM,10.7756,106.7019,15136000,106.696322,10.778004,7604.915,9320.866
Chennai,India,Asia,IN,IND,13.0825,80.275,12395000,80.274252,13.082905,9929.919,11776.147
Hyderabad,India,Asia,IN,IND,17.385,78.4867,10494000,78.484755,17.380835,8951.161,10801.163
Kuala Lumpur,Malaysia,Asia,MY,MYS,3.1478,101.6953,8911000,101.69502,3.145446,7081.137,8621.724
Bandung,Indonesia,Asia,ID,IDN,-6.912,107.6097,8599000,107.602485,-6.914929,2502.129,2674
Pune,India,Asia,IN,IND,18.5203,73.8567,8231000,73.867503,18.525565,5917.128,7166.374
Ahmedabad,India,Asia,IN,IND,23.03,72.58,8009000,72.598625,23.025975,7294.945,8650.605
Surat,India,Asia,IN,IND,21.1702,72.8311,6538000,72.840369,21.205076,5954.102,8064.949
Surabaya,Indonesia,Asia,ID,IDN,-7.2458,112.7378,6499000,112.738052,-7.243775,2868.336,3044.413
Jaipur,India,Asia,IN,IND,26.9,75.8,3073350,75.819625,26.912351,3520.318,4207.084
Phnom Penh,Cambodia,Asia,KH,KHM,11.5694,104.9211,2129371,104.92865,11.556365,1834.728,2281.198
Denpasar,Indonesia,Asia,ID,IDN,-8.65,115.2167,1779122,115.233856,-8.673105,903.53,1053.041
Davao,Philippines,Asia,PH,PHL,7.0667,125.6,1776949,125.607648,7.070148,1667.352,1949.4
Semarang,Indonesia,Asia,ID,IDN,-6.9667,110.4167,1621384,110.42328,-6.989227,1736.895,1975.306
Palembang,Indonesia,Asia,ID,IDN,-2.9861,104.7556,1535952,104.760804,-2.987893,1611.268,1818.421
Makassar,Indonesia,Asia,ID,IDN,-5.1619,119.4362,1338663,119.420656,-5.130501,1478.42,1673.094
Batam,Indonesia,Asia,ID,IDN,1.0833,104.0333,1230097,104.009867,1.148084,1262.984,1748.142
Bandar Lampung,Indonesia,Asia,ID,IDN,-5.45,105.2667,1166761,105.280374,-5.443954,1003.552,1162.242
Kathmandu,Nepal,Asia,NP,NPL,27.7172,85.324,975453,85.327876,27.709591,1227.249,1571.01
Sao Paulo,Brazil,Latin America,BR,BRA,-23.55,-46.6333,23086000,-46.634937,-23.551743,21136.155,22619.736
Mexico City,Mexico,Latin America,MX,MEX,19.4333,-99.1333,21804000,-99.133377,19.432273,21419.976,22281.442
Rio de Janeiro,Brazil,Latin America,BR,BRA,-22.9111,-43.2056,12592000,-43.180365,-22.909313,13057.419,13727.72
Lima,Peru,Latin America,PE,PER,-12.06,-77.0375,10320000,-77.03058,-12.046023,10002.049,11204.382
Bogota,Colombia,Latin America,CO,COL,4.7111,-74.0722,7968095,-74.076102,4.597901,9988.963,11507.96
Guadalajara,Mexico,Latin America,MX,MEX,20.6767,-103.3475,5525000,-103.34696,20.676609,4870.569,5419.88
Belo Horizonte,Brazil,Latin America,BR,BRA,-19.9167,-43.9333,5328000,-43.945842,-19.923063,5826.257,6247.889
Brasilia,Brazil,Latin America,BR,BRA,-15.7939,-47.8828,3039444,-47.882575,-15.79346,4266.576,4873.048
Guatemala City,Guatemala,Latin America,GT,GTM,14.6099,-90.5252,2934841,-90.51394,14.641789,2775.437,3095.099
Salvador,Brazil,Latin America,BR,BRA,-12.9747,-38.4767,2886698,-38.510074,-12.97291,3646.672,3958.384
La Paz,Bolivia,Latin America,BO,BOL,-16.5,-68.15,2867504,-68.131395,-16.504085,1767.866,1935.619
Guayaquil,Ecuador,Latin America,EC,ECU,-2.19,-79.8875,2723665,-79.884976,-2.194852,2790.791,3142.466
Santo Domingo,Dominican Republic,Latin America,DO,DOM,18.4764,-69.8933,2581827,-69.884518,18.473583,3018.681,3523.89
Medellin,Colombia,Latin America,CO,COL,6.2308,-75.5906,2529403,-75.567845,6.251887,3800.264,4102.308
Cali,Colombia,Latin America,CO,COL,3.4206,-76.5222,2471474,-76.531654,3.454379,2623.339,2863.73
Quito,Ecuador,Latin America,EC,ECU,-0.22,-78.5125,2011388,-78.514987,-0.221358,1763.259,1956.995
Tegucigalpa,Honduras,Latin America,HN,HND,14.1,-87.2167,1682725,-87.205185,14.103884,1274.86,1568.025
Leon,Mexico,Latin America,MX,MEX,21.1167,-101.6833,1579803,-101.682701,21.121925,1735.927,1898.749
Puebla,Mexico,Latin America,MX,MEX,19.0333,-98.1833,1576259,-98.198547,19.044369,3001.427,3344.761
San Jose,Costa Rica,Latin America,CR,CRI,9.9325,-84.08,1543000,-84.079156,9.933145,1748.592,1820.701
Managua,Nicaragua,Latin America,NI,NIC,12.1544,-86.2738,1028808,-86.266443,12.129613,1033.622,1094.51
Port-au-Prince,Haiti,Latin America,HT,HTI,18.5333,-72.3333,987310,-72.335196,18.540879,2502.942,2987.455
Merida,Mexico,Latin America,MX,MEX,20.97,-89.62,892363,-89.623728,20.967167,328.409,355.046
Cancun,Mexico,Latin America,MX,MEX,21.1606,-86.8475,888797,-86.824175,21.161338,829.027,1022.604
Queretaro,Mexico,Latin America,MX,MEX,20.5875,-100.3928,801940,-100.389739,20.59312,1237.901,1413.474
Acapulco,Mexico,Latin America,MX,MEX,16.8636,-99.8825,673478,-99.872513,16.859189,931.429,1018.976
San Salvador,El Salvador,Latin America,SV,SLV,13.6989,-89.1914,567698,-89.19158,13.698074,1101.602,1116.052
Asuncion,Paraguay,Latin America,PY,PRY,-25.3,-57.6333,524190,-57.63491,-25.282896,3050.044,3510.511
